City_ID,City,Lat,Lng,Max Temp,Humidity,Cloudiness,Wind Speed,Country,Date
0,thompson,55.7435,-97.8558,-15.91,85,100,1.54,CA,1676202330
1,albany,42.6001,-73.9662,-1.5,78,100,0.89,US,1676202330
2,east london,-33.0153,27.9116,30.52,62,20,2.57,ZA,1676202121
3,busselton,-33.65,115.3333,18.9,66,1,8.31,AU,1676202027
4,khatanga,71.9667,102.5,-28.11,98,100,0.55,RU,1676202332
5,saldanha,-33.0117,17.9442,21.11,74,45,5.8,ZA,1676202332
6,dilla,6.41,38.31,31.72,10,0,2.87,ET,1676202333
7,mataura,-46.1927,168.8643,11.72,99,78,0.74,NZ,1676202333
8,rikitea,-23.1203,-134.9692,25.34,73,62,2.21,PF,1676202334
9,georgetown,5.4112,100.3354,29.97,74,20,3.09,MY,1676202136
10,nelson bay,-32.7167,152.15,23.94,91,30,4.02,AU,1676202335
11,lompoc,34.6391,-120.4579,7.74,81,20,1.34,US,1676202336
12,plettenberg bay,-34.0527,23.3716,25.6,63,48,4.32,ZA,1676202337
13,kavieng,-2.5744,150.7967,26.96,81,98,6.1,PG,1676202337
14,yellowknife,62.456,-114.3525,-18.58,84,75,3.09,CA,1676202104
15,chuy,-33.6971,-53.4616,27.25,47,24,3.5,UY,1676202339
16,ahipara,-35.1667,173.1667,19.27,93,100,8.75,NZ,1676202339
17,san patricio,28.017,-97.5169,10.47,67,61,2.19,US,1676202340
18,broken hill,-31.95,141.4333,23.51,23,40,5.25,AU,1676202341
19,botwood,49.1499,-55.3482,-12.83,86,31,3.23,CA,1676202342
20,nishihara,26.1842,127.7558,21.81,88,75,3.6,JP,1676202342
21,acapulco,16.8634,-99.8901,22.9,88,40,2.06,MX,1676202343
22,puerto del rosario,28.5004,-13.8627,18.86,48,49,5.66,ES,1676202343
23,fort nelson,58.8053,-122.7002,-9.23,86,20,3.09,CA,1676202344
24,avarua,-21.2078,-159.775,26.03,89,100,1.54,CK,1676202117
25,atuona,-9.8,-139.0333,25.91,75,19,7.66,PF,1676202346
26,porosozero,62.7191,32.727,-5.88,88,87,3.32,RU,1676202346
27,prince rupert,54.3161,-130.3201,5.83,93,100,9.77,CA,1676202348
28,punta arenas,-53.15,-70.9167,6.06,75,20,8.23,CL,1676202348
29,bredasdorp,-34.5322,20.0403,29.54,40,3,7.5,ZA,1676202349
30,de aar,-30.6497,24.0123,28.65,29,48,3.98,ZA,1676202250
31,puerto ayora,-0.7393,-90.3518,23.64,97,94,1.43,EC,1676202350
32,kaitangata,-46.2817,169.8464,12.91,95,22,2.78,NZ,1676202350
33,norman wells,65.282,-126.8329,-24.98,70,100,3.09,CA,1676202351
34,aljezur,37.3191,-8.8033,14.99,71,100,8.48,PT,1676202352
35,ahuimanu,21.4447,-157.8378,22.89,75,20,5.66,US,1676202353
36,qasigiannguit,68.8193,-51.1922,-25.86,96,36,1.89,GL,1676202353
37,ust-koksa,50.2696,85.6108,-9.92,87,100,0.17,RU,1676202354
38,vaini,-21.2,-175.2,27.09,89,75,2.57,TO,1676202355
39,arys,42.4252,68.795,1.46,45,1,2.7,KZ,1676202158
40,tuatapere,-46.1333,167.6833,13.1,92,94,1.07,NZ,1676202357
41,nikolskoye,59.7035,30.7861,-1.78,86,88,3.02,RU,1676202358
42,vikhorevka,56.1201,101.1636,-12.23,100,25,1.11,RU,1676202097
43,sioux lookout,50.1001,-91.917,-3.96,93,100,0.0,CA,1676202359
44,barrow,71.2906,-156.7887,-26.99,76,0,6.69,US,1676202359
45,jamestown,42.097,-79.2353,-0.16,86,0,3.09,US,1676202240
46,ushuaia,-54.8,-68.3,5.81,81,40,4.12,AR,1676202322
47,souillac,-20.5167,57.5167,29.21,58,20,4.12,MU,1676202361
48,yerbogachen,61.2767,108.0108,-12.14,92,100,5.17,RU,1676202361
49,tromso,69.6496,18.957,3.01,75,100,13.38,NO,1676202362
50,vostok,46.4856,135.8833,-16.74,99,98,1.63,RU,1676202363
51,qaanaaq,77.484,-69.3632,-32.69,91,67,2.24,GL,1676202363
52,padrauna,26.9025,83.9819,22.0,22,0,6.63,IN,1676202364
53,puerto escondido,15.85,-97.0667,21.95,52,0,3.07,MX,1676202364
54,ilulissat,69.2167,-51.1,-25.99,70,86,0.51,GL,1676202365
55,jalu,29.0331,21.5482,16.29,36,97,3.57,LY,1676202366
56,mandalgovi,45.7625,106.2708,-14.03,76,0,3.34,MN,1676202366
57,bluff,-46.6,168.3333,14.98,91,46,3.19,NZ,1676202367
58,udachnyy,66.4167,112.4,-26.02,100,95,0.32,RU,1676202368
59,korla,41.7597,86.1469,0.91,63,57,2.35,CN,1676202173
60,mana,5.6592,-53.7767,25.17,84,99,5.11,GF,1676202369
61,leningradskiy,69.3833,178.4167,-26.07,97,100,6.24,RU,1676202369
62,sladkovo,55.5284,70.3385,-15.86,95,60,2.73,RU,1676202370
63,hohhot,40.8106,111.6522,-4.84,50,0,6.0,CN,1676202137
64,hovd,48.0056,91.6419,-13.38,91,100,0.69,MN,1676202371
65,victoria,22.2855,114.1577,23.31,93,55,5.81,HK,1676202345
66,pucara,-15.9803,-71.4606,1.07,74,98,1.49,PE,1676202373
67,tougue,11.4667,-11.6,33.92,21,2,3.44,GN,1676202373
68,hobart,-42.8794,147.3294,13.36,62,24,3.88,AU,1676202131
69,yar-sale,66.8333,70.8333,-9.97,92,99,7.75,RU,1676202374
70,ponta pora,-22.5361,-55.7256,22.95,88,0,0.0,BR,1676202375
71,coquimbo,-29.9533,-71.3436,17.85,94,100,2.57,CL,1676202376
72,hermanus,-34.4187,19.2345,23.52,74,54,4.6,ZA,1676202106
73,sur,22.5667,59.5289,24.46,48,0,2.75,OM,1676202378
74,tasiilaq,65.6145,-37.6368,-8.91,90,51,2.95,GL,1676202378
75,port alfred,-33.5906,26.891,25.66,77,80,3.58,ZA,1676202379
76,san quintin,30.4833,-115.95,12.1,62,90,3.8,MX,1676202379
77,pevek,69.7008,170.3133,-32.31,97,100,0.96,RU,1676202380
78,bengkulu,-3.8004,102.2655,25.12,85,91,3.79,ID,1676202380
79,vardo,70.3705,31.1107,-2.01,80,75,10.29,NO,1676202382
80,saint george,37.1041,-113.5841,0.33,59,0,2.06,US,1676202207
81,cotoca,-17.8167,-63.05,26.25,89,75,4.63,BO,1676202383
82,zemetchino,53.4973,42.6163,-2.86,97,100,3.16,RU,1676202383
83,castro,-24.7911,-50.0119,19.89,88,37,1.68,BR,1676202197
84,bloemhof,-27.6469,25.607,30.28,28,24,3.34,ZA,1676202343
85,saint-philippe,-21.3585,55.7679,29.77,74,91,4.46,RE,1676202385
86,dikson,73.5069,80.5464,-13.38,93,96,8.74,RU,1676202385
87,akdepe,42.0551,59.3788,6.05,17,40,6.26,TM,1676202386
88,conde,-7.2597,-34.9075,25.7,89,75,2.57,BR,1676202387
89,newport,51.5877,-2.9984,9.49,78,1,2.14,GB,1676202387
90,hasaki,35.7333,140.8333,11.23,78,76,6.75,JP,1676202381
91,katsuura,35.1333,140.3,14.5,81,70,6.7,JP,1676202287
92,bambous virieux,-20.3428,57.7575,29.14,58,20,4.12,MU,1676202389
93,ixtapa,20.7,-105.2,19.01,78,3,1.25,MX,1676202231
94,umea,63.8284,20.2597,4.96,70,0,3.6,SE,1676202389
95,ribeira grande,38.5167,-28.7,14.87,58,20,4.92,PT,1676202366
96,bedford,52.1346,-0.4663,9.08,74,75,2.57,GB,1676202391
97,paamiut,61.994,-49.6678,-18.97,86,10,4.62,GL,1676202392
98,hambantota,6.1241,81.1185,30.19,79,20,2.57,LK,1676202375
99,upernavik,72.7868,-56.1549,-26.54,91,100,0.42,GL,1676202393
100,atar,20.5169,-13.0499,29.37,10,95,2.6,MR,1676202393
101,adrar,20.5022,-10.0711,31.1,8,93,5.47,MR,1676202395
102,dzhebariki-khaya,62.2167,135.8,-37.8,100,98,0.84,RU,1676202395
103,biltine,14.5333,20.9167,33.63,9,0,4.6,TD,1676202396
104,goderich,43.7501,-81.7165,0.18,80,0,3.6,CA,1676202396
105,kapaa,22.0752,-159.319,23.18,74,100,8.23,US,1676202397
106,san cristobal,7.7669,-72.225,19.1,72,99,1.67,VE,1676202397
107,rio gallegos,-51.6226,-69.2181,6.03,65,0,6.69,AR,1676202398
108,mecca,21.4267,39.8261,30.69,36,8,9.56,SA,1676202374
109,beroroha,-21.6667,45.1667,35.34,38,75,0.56,MG,1676202399
110,nueva gerona,21.8833,-82.8,22.46,86,0,4.57,CU,1676202399
111,jasper,37.2001,-94.3502,-0.31,64,0,1.54,US,1676202400
112,binghamton,42.0987,-75.918,-1.4,73,0,2.57,US,1676202184
113,cape town,-33.9258,18.4232,26.73,63,75,5.14,ZA,1676202287
114,mehamn,71.0357,27.8492,-3.03,93,100,15.95,NO,1676202402
115,saint-francois,46.4154,3.9054,8.31,87,100,2.57,FR,1676202402
116,kahului,20.8947,-156.47,22.13,82,0,5.66,US,1676202403
117,varberg,57.1056,12.2508,9.67,93,89,7.62,SE,1676202403
118,hami,42.8,93.45,1.82,35,100,3.02,CN,1676202176
119,saskylakh,71.9167,114.0833,-41.34,99,49,3.18,RU,1676202404
120,bilibino,68.0546,166.4372,-36.64,99,76,1.89,RU,1676202405
121,kastamonu,41.5,33.6667,1.29,52,86,1.74,TR,1676202405
122,northam,51.0333,-4.2167,9.23,82,6,6.59,GB,1676202406
123,tumpat,6.1978,102.171,26.99,78,20,2.57,MY,1676202407
124,port lincoln,-34.7333,135.8667,16.12,70,0,7.64,AU,1676202364
125,sao filipe,14.8961,-24.4956,21.07,79,95,4.39,CV,1676202366
126,lagoa,39.05,-27.9833,13.18,64,68,4.82,PT,1676202408
127,ola,59.5833,151.2833,-16.74,98,100,2.51,RU,1676202409
128,ancud,-41.8697,-73.8203,13.51,93,100,2.14,CL,1676202409
129,lebu,-37.6167,-73.65,16.46,89,100,1.64,CL,1676202410
130,tiksi,71.6872,128.8694,-40.53,100,68,0.99,RU,1676202410
131,puksoozero,62.5903,40.6066,-9.3,96,99,2.52,RU,1676202412
132,grand gaube,-20.0064,57.6608,29.22,65,21,8.17,MU,1676202412
133,dolores,-36.3132,-57.6792,30.44,33,64,5.55,AR,1676202413
134,ketchikan,55.3422,-131.6461,6.99,93,100,7.72,US,1676202413
135,nanma,36.1817,118.1583,0.85,95,100,4.5,CN,1676202414
136,laguna,38.421,-121.4238,8.77,82,0,0.45,US,1676202415
137,odweyne,9.4092,45.064,30.49,9,0,7.54,SO,1676202415
138,pundaguitan,6.3711,126.1689,27.2,71,100,3.93,PH,1676202416
139,chokurdakh,70.6333,147.9167,-32.48,94,100,2.53,RU,1676202417
140,porbandar,21.6422,69.6093,29.93,36,0,4.14,IN,1676202325
141,channel-port aux basques,47.5702,-59.1367,-3.98,70,99,7.5,CA,1676202419
142,husavik,66.0449,-17.3389,0.78,72,84,4.56,IS,1676202419
143,raudeberg,61.9875,5.1352,7.75,3,100,12.0,NO,1676202420
144,porto murtinho,-21.6989,-57.8825,25.23,87,6,3.32,BR,1676202420
145,uruacu,-14.5247,-49.1408,26.19,71,96,1.48,BR,1676202184
146,carnarvon,-24.8667,113.6333,25.31,76,0,10.8,AU,1676202422
147,nanortalik,60.1432,-45.2371,-11.78,67,100,6.96,GL,1676202422
148,tarauaca,-8.1614,-70.7656,21.99,99,100,0.22,BR,1676202423
149,drumnadrochit,57.3344,-4.4799,10.88,68,100,4.3,GB,1676202424
150,provideniya,64.3833,-173.3,-29.91,95,45,2.98,RU,1676202424
151,rosetta,31.4044,30.4164,14.14,51,92,4.34,EG,1676202181
152,zhuhai,22.2769,113.5678,24.92,94,40,1.03,CN,1676202425
153,port blair,11.6667,92.75,29.02,65,48,2.57,IN,1676202188
154,sinjai,-5.1241,120.253,25.93,83,100,1.83,ID,1676202314
155,arraial do cabo,-22.9661,-42.0278,25.98,88,40,3.09,BR,1676202134
156,payo,-3.7508,103.6372,25.22,73,99,1.13,ID,1676202428
157,faanui,-16.4833,-151.75,27.14,77,87,5.97,PF,1676202430
158,port elizabeth,-33.918,25.5701,28.94,73,20,10.8,ZA,1676202159
159,atambua,-9.1061,124.8925,23.57,91,97,1.95,ID,1676202431
160,namatanai,-3.6667,152.4333,26.24,84,100,3.02,PG,1676202432
161,muravlenko,63.7898,74.523,-14.06,93,94,8.34,RU,1676202432
162,shingu,33.7333,135.9833,11.45,86,93,1.67,JP,1676202433
163,esperance,-33.8667,121.9,17.35,70,0,7.07,AU,1676202433
164,havoysund,70.9963,24.6622,-0.87,98,100,15.07,NO,1676202434
165,santiago,-33.4569,-70.6483,25.14,48,0,1.03,CL,1676202435
166,kanganpur,30.7663,74.1231,19.94,9,0,4.44,PK,1676202311
167,nador,35.174,-2.9287,17.14,51,0,3.09,MA,1676202436
168,sinnamary,5.3833,-52.95,24.96,87,100,5.4,GF,1676202436
169,cabo san lucas,22.8909,-109.9124,18.62,67,81,2.68,MX,1676202437
170,batemans bay,-35.7167,150.1833,21.17,81,90,3.31,AU,1676202438
171,campbell river,50.0163,-125.2446,5.74,96,100,2.07,CA,1676202438
172,cherskiy,68.75,161.3,-40.54,99,80,0.24,RU,1676202439
173,sechura,-5.5569,-80.8222,23.64,78,92,2.21,PE,1676202440
174,beringovskiy,63.05,179.3167,-30.95,89,63,3.1,RU,1676202440
175,aklavik,68.2191,-135.0107,-36.0,75,40,0.0,CA,1676202441
176,hay river,60.8156,-115.7999,-22.01,84,20,1.54,CA,1676202441
177,palas,-5.6519,105.6801,25.0,85,100,3.58,ID,1676202442
178,rakaia,-43.75,172.0167,13.46,96,1,3.31,NZ,1676202442
179,malanville,11.8685,3.3899,34.88,8,0,7.33,BJ,1676202443
180,jinji,23.2281,110.8261,23.87,78,54,1.47,CN,1676202171
181,niquelandia,-14.4739,-48.4597,25.36,69,68,1.34,BR,1676202444
182,tocopilla,-22.092,-70.1979,22.6,69,33,0.49,CL,1676202445
183,itarema,-2.9248,-39.9167,28.75,63,71,5.7,BR,1676202445
184,krasnaya zarya,52.7825,37.6806,-5.27,85,100,10.35,RU,1676202446
185,kruisfontein,-34.0033,24.7314,27.16,60,98,7.64,ZA,1676202446
186,bethel,41.3712,-73.414,0.83,69,0,0.0,US,1676202449
187,constitucion,-35.3333,-72.4167,18.03,73,0,2.1,CL,1676202449
188,geraldton,-28.7667,114.6,23.23,78,2,6.17,AU,1676202450
189,touros,-5.1989,-35.4608,29.69,60,83,5.76,BR,1676202451
190,flinders,-34.5833,150.8552,22.32,84,90,1.34,AU,1676202451
191,brigantine,39.4101,-74.3646,3.9,83,0,0.89,US,1676202452
192,fairbanks,64.8378,-147.7164,-14.67,77,100,0.0,US,1676202453
193,champerico,14.3,-91.9167,23.78,72,3,1.83,GT,1676202454
194,hilo,19.7297,-155.09,18.95,96,100,3.6,US,1676202455
195,sitka,57.0531,-135.33,6.94,81,100,6.17,US,1676202456
196,little baguio,7.8939,125.2764,18.81,89,100,1.51,PH,1676202456
197,ilhabela,-23.7781,-45.3581,27.55,71,76,0.47,BR,1676202457
198,mancio lima,-7.6142,-72.8958,22.53,98,100,0.59,BR,1676202457
199,chumikan,54.7183,135.315,-21.08,92,28,6.14,RU,1676202458
200,severo-kurilsk,50.6789,156.125,-8.28,64,90,2.8,RU,1676202458
201,los algarrobos,8.5,-82.4333,22.23,88,0,1.03,PA,1676202459
202,ostrovnoy,68.0531,39.5131,-7.45,92,82,6.31,RU,1676202459
203,margate,51.3813,1.3862,8.82,84,100,0.89,GB,1676202460
204,chapais,49.7834,-74.8492,-9.12,92,99,4.16,CA,1676202461
205,guerrero negro,27.9769,-114.0611,12.28,79,10,4.81,MX,1676202462
206,scarborough,54.2797,-0.4044,8.85,70,42,0.45,GB,1676202462
207,baker city,44.7749,-117.8344,-8.16,93,0,0.0,US,1676202463
208,cap malheureux,-19.9842,57.6142,27.23,64,25,7.83,MU,1676202463
209,alyangula,-13.8483,136.4192,27.68,82,100,5.5,AU,1676202464
210,gillette,44.2911,-105.5022,-0.49,59,0,4.12,US,1676202209
211,bandar,2.05,99.75,23.91,96,100,1.26,ID,1676202465
212,chulym,55.0997,80.9572,-9.88,92,89,3.29,RU,1676202465
213,sarangani,5.4033,125.4636,27.55,74,100,2.31,PH,1676202466
214,muros,42.7762,-9.0603,15.38,51,23,2.49,ES,1676202456
215,surab,28.4914,66.2585,14.17,14,10,2.33,PK,1676202467
216,mount gambier,-37.8333,140.7667,11.43,74,1,2.6,AU,1676202468
217,bull savanna,17.8868,-77.5902,20.81,80,0,1.79,JM,1676202469
218,codrington,-38.2667,141.9667,14.56,61,45,4.99,AU,1676202469
219,bulanash,57.2783,61.9965,-6.92,92,93,1.89,RU,1676202470
220,vytegra,61.0064,36.4481,-8.0,91,34,2.23,RU,1676202471
221,soledade,-28.8183,-52.5103,25.59,51,0,2.33,BR,1676202290
222,ust-kuyga,70.0167,135.6,-50.52,100,80,1.44,RU,1676202472
223,eyl,7.9803,49.8164,27.4,55,4,9.39,SO,1676202472
224,mokhsogollokh,61.4681,128.9203,-27.53,99,100,1.68,RU,1676202473
225,ostersund,63.1792,14.6357,6.25,75,20,9.77,SE,1676202473
226,karratha,-20.7377,116.8463,31.37,59,45,8.57,AU,1676202474
227,yulara,-25.2406,130.9889,33.6,17,42,2.22,AU,1676202475
228,muroto,33.2833,134.15,13.85,69,100,1.29,JP,1676202467
229,san ramon,37.7799,-121.978,8.61,87,0,1.79,US,1676202476
230,isiro,2.7739,27.616,38.18,13,3,2.45,CD,1676202384
231,altamira,-3.2033,-52.2064,25.05,94,75,0.0,BR,1676202201
232,balykshi,47.0667,51.8667,-3.0,80,75,4.0,KZ,1676202478
233,kalmunai,7.4167,81.8167,24.99,75,19,4.16,LK,1676202478
234,ushtobe,45.2514,77.9838,-6.1,88,100,2.41,KZ,1676202479
235,wote,-1.7808,37.6288,31.31,20,86,5.85,KE,1676202479
236,sambava,-14.2667,50.1667,28.63,70,99,5.19,MG,1676202348
237,iqaluit,63.7506,-68.5145,-34.06,66,20,3.09,CA,1676202364
238,niigata,37.9022,139.0236,6.97,70,75,3.09,JP,1676202230
239,srednekolymsk,67.45,153.6833,-35.15,97,100,0.92,RU,1676202482
240,san carlos de bariloche,-41.1456,-71.3082,12.86,82,75,1.54,AR,1676202482
241,mar del plata,-38.0023,-57.5575,25.01,78,0,3.09,AR,1676202483
242,rawson,-43.3002,-65.1023,22.88,34,81,3.72,AR,1676202483
243,izhma,65.0083,53.9113,-8.41,92,100,4.07,RU,1676202484
244,vydrino,51.485,104.8461,-13.56,85,11,2.09,RU,1676202485
245,opelousas,30.5335,-92.0815,5.94,93,0,2.06,US,1676202286
246,staryy krym,45.0333,35.1,2.17,82,100,6.12,UA,1676202486
247,dospat,41.65,24.1667,1.02,65,100,1.09,BG,1676202487
248,manakara,-22.1333,48.0167,28.54,66,63,4.83,MG,1676202470
249,arman,59.7,150.1667,-18.16,97,97,2.59,RU,1676202488
250,butaritari,3.0707,172.7902,26.68,83,84,6.02,KI,1676202488
251,green river,41.5286,-109.4662,-11.78,70,100,0.61,US,1676202489
252,mananara,-16.1667,49.7667,28.8,70,32,3.95,MG,1676202490
253,cayenne,4.9333,-52.3333,25.02,94,75,0.0,GF,1676202491
254,olinda,-8.0089,-34.8553,26.85,78,40,1.54,BR,1676202492
255,nenjiang,49.1833,125.2167,-19.79,99,42,0.67,CN,1676202284
256,longyearbyen,78.2186,15.6401,-3.09,74,75,9.26,SJ,1676202485
257,lasa,46.6166,10.7002,11.49,83,4,0.96,IT,1676202493
258,new norfolk,-42.7826,147.0587,13.72,55,71,0.45,AU,1676202494
259,dudinka,69.4058,86.1778,-12.17,92,100,10.41,RU,1676202494
260,grand-santi,4.25,-54.3833,23.98,96,99,1.18,GF,1676202495
261,kidal,18.4411,1.4078,31.43,11,4,6.7,ML,1676202372
262,ponta do sol,32.6667,-17.1,19.45,79,99,1.57,PT,1676202496
263,esso,55.9333,158.7,-22.49,87,13,2.32,RU,1676202496
264,umm lajj,25.0213,37.2685,21.42,48,100,6.39,SA,1676202497
265,mahebourg,-20.4081,57.7,29.16,58,20,4.12,MU,1676202498
266,olafsvik,64.8945,-23.7142,2.77,85,100,7.47,IS,1676202498
267,fukue,32.6881,128.8419,13.36,96,100,10.65,JP,1676202495
268,linxia,35.6003,103.2064,-2.22,66,99,2.47,CN,1676202500
269,yatou,37.15,122.3833,2.78,86,99,7.34,CN,1676202500
270,bandipur,27.9333,84.4167,15.18,46,69,0.65,NP,1676202501
271,kloulklubed,7.0419,134.2556,24.28,78,100,7.34,PW,1676202502
272,padang,-0.9492,100.3543,28.03,81,97,0.5,ID,1676202502
273,nago,26.5881,127.9761,22.24,92,12,3.48,JP,1676202503
274,coahuayana,18.7333,-103.6833,20.37,65,0,1.82,MX,1676202503
275,maragogi,-9.0122,-35.2225,28.07,71,75,4.04,BR,1676202504
276,luderitz,-26.6481,15.1594,23.35,63,2,4.59,NA,1676202472
277,bo rai,12.5728,102.5371,25.81,83,87,2.15,TH,1676202505
278,takhtamygda,54.1,123.5667,-25.89,100,68,0.8,RU,1676202506
279,clyde river,70.4692,-68.5914,-32.87,75,40,3.6,CA,1676202507
280,airai,-8.9266,125.4092,15.62,96,100,1.37,TL,1676202507
281,krasnoborsk,61.5598,45.934,-9.12,97,96,0.95,RU,1676202508
282,coihueco,-36.6167,-71.8333,18.4,45,0,0.82,CL,1676202509
283,grindavik,63.8424,-22.4338,2.97,100,75,5.66,IS,1676202509
284,edd,13.9297,41.6925,33.56,30,0,8.29,ER,1676202510
285,rocha,-34.4833,-54.3333,30.79,32,1,5.84,UY,1676202511
286,gigmoto,13.7796,124.39,25.09,86,63,4.88,PH,1676202512
287,vityazevo,44.9931,37.2719,4.23,81,75,8.0,RU,1676202512
288,puerto el triunfo,13.2833,-88.55,22.71,68,7,3.34,SV,1676202513
289,tecoanapa,16.5167,-98.75,22.96,77,0,2.43,MX,1676202514
290,neiafu,-18.65,-173.9833,25.74,88,100,6.48,TO,1676202515
291,ayios nikolaos,38.4167,23.65,13.21,31,29,2.28,GR,1676202516
292,sobolevo,54.4299,31.8996,-3.72,86,17,5.81,RU,1676202516
293,giyon,8.5333,37.9833,29.49,5,0,8.37,ET,1676202386
294,tura,25.5198,90.2201,19.92,38,0,1.18,IN,1676202402
295,vao,-22.6667,167.4833,24.99,64,0,9.82,NC,1676202520
296,zaranj,30.9667,61.8833,13.98,20,3,3.35,AF,1676202520
297,pitimbu,-7.4706,-34.8086,26.33,69,74,4.37,BR,1676202521
298,nara,34.6851,135.8049,13.05,39,99,0.3,JP,1676202522
299,denpasar,-8.65,115.2167,28.81,83,20,3.6,ID,1676202317
300,vila velha,-20.3297,-40.2925,27.75,77,20,3.6,BR,1676202524
301,torbay,47.6666,-52.7314,-9.35,76,85,3.58,CA,1676202526
302,comodoro rivadavia,-45.8667,-67.5,16.92,31,20,10.29,AR,1676202526
303,lieksa,63.3167,30.0167,-5.53,91,100,5.14,FI,1676202527
304,limbang,4.75,115.0,29.06,94,96,0.82,MY,1676202316
305,yagodnoye,62.55,149.6667,-34.95,100,89,0.79,RU,1676202528
306,kamaishi,39.2667,141.8833,2.32,85,51,3.33,JP,1676202441
307,bubaque,11.2833,-15.8333,24.59,54,1,3.14,GW,1676202529
308,praia,14.9215,-23.5087,22.3,68,75,7.2,CV,1676202241
309,richards bay,-28.783,32.0377,31.74,60,82,6.9,ZA,1676202530
310,zunyi,27.6867,106.9072,9.96,90,94,1.41,CN,1676202515
311,qaqortoq,60.7167,-46.0333,-18.51,67,100,2.81,GL,1676202532
312,mikhaylovka,50.06,43.2379,-0.12,96,100,7.67,RU,1676202532
313,lashio,22.9333,97.75,18.37,36,0,0.73,MM,1676202533
314,cidreira,-30.1811,-50.2056,25.3,64,0,3.25,BR,1676202533
315,polican,40.6122,20.0981,9.01,38,93,1.33,AL,1676202534
316,narsaq,60.9167,-46.05,-17.88,64,99,3.17,GL,1676202534
317,coihaique,-45.5752,-72.0662,8.34,71,100,2.57,CL,1676202535
318,buala,-8.145,159.5921,26.85,81,100,2.29,SB,1676202535
319,pisco,-13.7,-76.2167,23.03,88,40,3.09,PE,1676202536
320,inirida,3.8653,-67.9239,23.65,94,91,0.94,CO,1676202537
321,praia da vitoria,38.7333,-27.0667,15.42,88,75,3.1,PT,1676202537
322,garca,-22.2106,-49.6561,21.49,83,97,2.74,BR,1676202253
323,ust-kulom,61.6864,53.6902,-4.83,95,100,2.78,RU,1676202539
324,srem,52.0887,17.0151,7.1,92,100,2.52,PL,1676202539
325,corn island,12.1694,-83.0418,26.09,78,15,9.6,NI,1676202540
326,morondava,-20.2833,44.2833,28.59,73,79,4.46,MG,1676202541
327,paragominas,-2.9667,-47.4833,24.97,88,99,1.36,BR,1676202542
328,kodiak,57.79,-152.4072,-0.27,86,100,6.69,US,1676202542
329,port pirie,-33.1833,138.0167,19.06,55,97,5.88,AU,1676202543
330,pacific grove,36.6177,-121.9166,5.91,93,0,1.54,US,1676202543
331,miles city,46.4083,-105.8406,-2.46,86,0,2.06,US,1676202544
332,portland,45.5234,-122.6762,3.69,93,40,0.89,US,1676202545
333,bathsheba,13.2167,-59.5167,24.34,78,75,10.29,BB,1676202545
334,tame,6.461,-71.73,26.04,53,100,1.86,CO,1676202326
335,la ronge,55.1001,-105.2842,-0.86,86,40,4.12,CA,1676202546
336,srikakulam,18.3,83.9,26.58,69,27,5.07,IN,1676202547
337,san andres,12.5847,-81.7006,26.01,83,40,6.69,CO,1676202548
338,havre,49.5833,0.3333,7.89,87,100,5.14,FR,1676202548
339,san nicolas,18.1725,120.5953,26.95,78,20,1.54,PH,1676202291
340,lengshuitan,26.4111,111.5956,9.27,91,100,3.38,CN,1676202549
341,rio grande,-32.035,-52.0986,26.06,68,6,1.41,BR,1676202550
342,fairlie,55.756,-4.8556,9.12,83,100,0.89,GB,1676202551
343,cocobeach,1.0002,9.5823,28.45,75,31,3.44,GA,1676202551
344,andenes,69.3143,16.1194,3.99,70,40,11.83,NO,1676202552
345,kurbnesh,41.7797,20.0836,7.39,52,99,5.34,AL,1676202552
346,mackenzie,55.2999,-123.1698,1.12,93,100,4.63,CA,1676202553
347,gambela,8.25,34.5833,39.81,14,3,3.97,ET,1676202553
348,roald,62.5833,6.1333,9.63,93,75,11.32,NO,1676202554
349,ndele,8.4109,20.6473,39.37,11,18,2.66,CF,1676202555
350,oussouye,12.485,-16.5469,29.1,23,25,4.02,SN,1676202555
351,aviles,43.5547,-5.9248,14.66,40,0,1.54,ES,1676202556
352,marawi,7.9986,124.2928,20.0,96,97,0.94,PH,1676202556
353,itarare,-24.1125,-49.3317,21.78,85,37,1.1,BR,1676202333
354,ginir,7.1333,40.7,25.62,12,0,6.72,ET,1676202557
355,jian,27.1172,114.9793,14.08,95,98,4.3,CN,1676202558
356,tambovka,50.0969,128.0489,-23.87,100,54,1.2,RU,1676202559
357,iquitos,-3.7481,-73.2472,24.02,94,75,1.03,PE,1676202559
358,dingle,10.9995,122.6711,23.59,84,23,3.59,PH,1676202560
359,katangli,51.7102,143.2326,-16.41,96,100,2.49,RU,1676202561
360,hithadhoo,-0.6,73.0833,27.29,68,2,5.35,MV,1676202562
361,quatre cocos,-20.2078,57.7625,29.06,63,23,7.29,MU,1676202563
362,rockport,28.0206,-97.0544,10.56,90,0,2.57,US,1676202563
363,ambanja,-13.6833,48.45,27.96,80,97,2.48,MG,1676202470
364,hobyo,5.3505,48.5268,27.09,61,5,9.9,SO,1676202565
365,zeya,53.75,127.2667,-23.64,93,36,1.87,RU,1676202566
366,kununurra,-15.7667,128.7333,23.99,94,75,1.54,AU,1676202568
367,mogadishu,2.0371,45.3438,28.93,70,0,8.75,SO,1676202568
368,mahibadhoo,3.7833,72.9667,27.08,62,3,4.78,MV,1676202569
369,tuktoyaktuk,69.4541,-133.0374,-34.11,100,37,1.5,CA,1676202569
370,swellendam,-34.0226,20.4417,33.28,25,0,4.16,ZA,1676202570
371,avera,33.194,-82.5271,6.73,95,97,2.33,US,1676202570
372,tilichiki,60.4667,166.1,-23.0,83,97,3.78,RU,1676202571
373,kjollefjord,70.9457,27.3465,-0.97,93,100,15.95,NO,1676202571
374,juegang,32.3174,121.1855,10.55,96,100,7.88,CN,1676202572
375,shihezi,44.3,86.0333,-7.65,96,100,0.49,CN,1676202572
376,hokitika,-42.7167,170.9667,15.85,88,32,1.95,NZ,1676202573
377,naze,28.3667,129.4833,19.51,88,96,6.44,JP,1676202574
378,naivasha,-0.7167,36.4359,25.61,11,92,0.89,KE,1676202574
379,krasnoselkup,65.7,82.4667,-12.72,90,100,10.12,RU,1676202575
380,coronado,32.6859,-117.1831,10.55,77,20,3.09,US,1676202575
381,skjervoy,70.0311,20.9714,5.0,85,100,18.95,NO,1676202576
382,posse,-14.0931,-46.3694,25.68,52,89,3.78,BR,1676202576
383,kamenka,51.3223,42.7678,-2.03,96,100,6.37,RU,1676202577
384,beloha,-25.1667,45.05,35.04,29,98,2.75,MG,1676202577
385,san isidro,-12.1167,-77.05,23.9,84,40,2.57,PE,1676202578
386,yumen,40.2833,97.2,-2.25,38,100,7.14,CN,1676202579
387,hualmay,-11.0964,-77.6139,22.56,86,100,2.63,PE,1676202579
388,vestmannaeyjar,63.4427,-20.2734,3.55,87,40,7.2,IS,1676202580
389,boyolangu,-8.1181,111.8935,23.99,94,97,2.99,ID,1676202306
390,pochutla,15.7432,-96.4661,21.01,70,0,1.09,MX,1676202581
391,chingirlau,51.095,54.0814,-8.76,85,15,5.22,KZ,1676202582
392,san carlos del zulia,9.0,-71.9135,23.05,88,66,1.16,VE,1676202583
393,orsk,51.2049,58.5668,-10.5,73,0,0.0,RU,1676202583
394,icod de los vinos,28.3724,-16.7119,20.43,66,60,1.88,ES,1676202584
395,usinsk,65.9939,57.5281,-8.73,94,100,9.13,RU,1676202585
396,nsanje,-16.92,35.262,28.46,75,100,2.36,MW,1676202470
397,bilma,18.6853,12.9164,27.62,13,2,8.21,NE,1676202587
398,proletarsk,46.7031,41.7192,1.15,96,98,6.41,RU,1676202587
399,havelock,34.8791,-76.9013,12.19,87,100,7.72,US,1676202588
400,lewistown,40.5992,-77.5714,-0.97,93,0,2.06,US,1676202588
401,vila franca do campo,37.7167,-25.4333,14.23,72,14,2.03,PT,1676202589
402,maraa,-1.8333,-65.3667,23.6,96,92,0.6,BR,1676202590
403,saint-augustin,51.226,-58.6502,-20.96,90,39,1.75,CA,1676202591
404,madison,34.7334,-86.5667,3.25,96,100,5.66,US,1676202591
405,okhotsk,59.3833,143.3,-23.13,91,100,5.01,RU,1676202592
406,anadyr,64.75,177.4833,-31.72,68,40,5.0,RU,1676202557
407,pemberton,50.3164,-122.8027,1.98,96,98,1.6,CA,1676202593
408,nadvoitsy,63.8667,34.3167,-6.86,88,91,3.08,RU,1676202593
409,bida,9.0833,6.0167,38.23,6,8,2.9,NG,1676202594
410,nouadhibou,20.931,-17.0347,17.99,77,100,5.66,MR,1676202594
411,hervey bay,-25.2986,152.8535,26.68,84,32,4.92,AU,1676202595
412,maracaibo,10.6317,-71.6406,24.77,71,75,2.65,VE,1676202595
413,sabang,5.8933,95.3214,27.69,76,20,4.85,ID,1676202597
414,elk city,35.412,-99.4043,-0.01,64,0,5.41,US,1676202597
415,alta gracia,-31.6529,-64.4283,30.86,38,0,4.5,AR,1676202598
416,gamba,-2.65,10.0,29.04,75,75,4.29,GA,1676202599
417,vadlapudi,14.3167,79.8,28.0,47,19,4.94,IN,1676202331
418,milford,41.2223,-73.0565,2.1,74,0,0.0,US,1676202600
419,innisfail,-17.5333,146.0333,25.44,75,100,0.48,AU,1676202600
420,atbasar,51.8,68.3333,-14.29,96,69,3.4,KZ,1676202311
421,novopskov,49.5464,39.0899,-1.68,85,100,7.64,UA,1676202601
422,aranos,-24.1333,19.1167,32.84,17,0,2.43,NA,1676202602
423,kindu,-2.95,25.95,27.28,67,99,1.88,CD,1676202385
424,tulsipur,28.131,82.2973,17.82,18,0,5.42,NP,1676202311
425,wajima,37.4,136.9,8.16,79,91,4.14,JP,1676202604
426,tinoto,5.8867,125.0706,26.27,74,100,2.55,PH,1676202604
427,solnechnyy,50.7214,136.6319,-18.72,96,80,1.57,RU,1676202605
428,kikwit,-5.041,18.8162,28.89,61,100,1.19,CD,1676202606
429,tomatlan,19.9333,-105.25,17.28,74,10,1.13,MX,1676202606
430,chaozhou,23.6651,116.6379,20.92,91,15,1.58,CN,1676202377
431,pfarrkirchen,48.432,12.9381,7.61,77,64,0.56,DE,1676202608
432,los llanos de aridane,28.6585,-17.9182,18.86,50,20,2.24,ES,1676202608
433,verkhnyaya toyma,62.2349,44.9985,-10.6,96,100,1.31,RU,1676202609
434,vanimo,-2.6741,141.3028,26.3,88,76,4.6,PG,1676202610
435,bontang,0.1333,117.5,26.38,81,76,2.43,ID,1676202610
436,kanniyakumari,8.0833,77.5667,28.46,56,27,7.7,IN,1676202611
437,half moon bay,37.4636,-122.4286,9.44,85,75,2.06,US,1676202611
438,goundam,16.4145,-3.6708,35.32,8,19,8.64,ML,1676202612
439,shirpur,21.35,74.8833,32.13,14,1,4.27,IN,1676202401
440,kargopol,61.5071,38.9456,-8.07,92,66,2.16,RU,1676202613
441,ovalle,-30.5983,-71.2003,20.45,72,0,1.59,CL,1676202615
442,lorengau,-2.0226,147.2712,27.33,80,100,3.25,PG,1676202615
443,santa helena de goias,-17.8136,-50.5969,22.0,93,100,2.39,BR,1676202616
444,corozal,9.3151,-75.2928,23.8,86,31,1.4,CO,1676202616
445,erenhot,43.6475,111.9767,-8.3,47,8,2.72,CN,1676202618
446,watertown,42.3709,-71.1828,1.09,66,0,3.6,US,1676202618
447,miracema do tocantins,-9.5618,-48.3967,28.55,67,74,1.1,BR,1676202619
448,sorland,67.667,12.6934,5.92,76,94,18.47,NO,1676202620
449,ambilobe,-13.2,49.05,29.23,62,78,3.03,MG,1676202470
450,kudahuvadhoo,2.6708,72.8944,27.09,66,0,5.95,MV,1676202621
451,labelle,26.7617,-81.4384,20.01,68,93,4.65,US,1676202621
452,nakonde,-9.3421,32.745,20.13,79,100,1.0,ZM,1676202622
453,lavrentiya,65.5833,-171.0,-30.48,90,48,2.82,RU,1676202622
454,sao joao da barra,-21.6403,-41.0511,27.05,84,71,2.9,BR,1676202623
455,kajaani,64.2273,27.7285,-4.97,86,100,4.63,FI,1676202624
456,carire,-3.9506,-40.4733,27.48,63,63,2.29,BR,1676202624
457,talnakh,69.4865,88.3972,-12.56,90,100,7.44,RU,1676202482
458,gorontalo,0.5412,123.0595,24.5,90,97,2.11,ID,1676202626
459,codajas,-3.8367,-62.0569,24.09,94,93,1.0,BR,1676202626
460,isangel,-19.55,169.2667,23.6,91,100,2.92,VU,1676202628
461,progreso,21.2833,-89.6667,16.73,59,90,5.31,MX,1676202628
462,tezu,27.9167,96.1667,16.61,72,64,1.17,IN,1676202629
463,bakchar,57.0186,82.0711,-14.49,98,28,1.72,RU,1676202630
464,acajutla,13.5928,-89.8275,25.33,60,0,3.61,SV,1676202630
465,harper,4.375,-7.7169,29.38,69,17,2.39,LR,1676202631
466,clearlake,38.9582,-122.6264,5.55,91,8,1.79,US,1676202631
467,pringsewu,-5.3582,104.9744,23.32,92,100,0.47,ID,1676202566
468,nome,64.5011,-165.4064,-18.96,71,100,4.63,US,1676202632
469,gornopravdinsk,60.05,69.9,-10.75,93,100,3.6,RU,1676202633
470,ambovombe,-25.1667,46.0833,30.09,58,92,6.49,MG,1676202470
471,wilmington,34.2257,-77.9447,12.22,92,100,5.66,US,1676202507
472,tecpan,14.7623,-90.9947,9.94,97,70,4.18,GT,1676202636
473,mapiri,-15.25,-68.1667,20.59,99,100,0.07,BO,1676202636
474,daru,-9.0763,143.2092,26.43,83,100,2.54,PG,1676202637
475,petrovac,44.3769,21.4192,2.19,85,100,2.2,RS,1676202638
476,baglung,28.2719,83.5898,13.84,47,81,1.08,NP,1676202638
477,marzuq,14.4,46.4667,27.9,8,1,7.2,YE,1676202639
478,san policarpo,12.1791,125.5072,26.65,76,19,6.48,PH,1676202639
479,orocue,4.7912,-71.3354,26.65,58,98,4.47,CO,1676202640
480,bystryy istok,52.371,84.3873,-11.03,95,100,0.99,RU,1676202642
481,ihosy,-22.4,46.1167,29.58,46,72,2.55,MG,1676202643
482,fortuna,40.5982,-124.1573,6.63,97,100,4.12,US,1676202643
483,redlands,34.0556,-117.1825,7.1,81,0,0.0,US,1676202644
484,biak,-0.9131,122.8766,25.59,78,81,1.79,ID,1676202645
485,glendive,47.1053,-104.7125,1.77,88,0,3.6,US,1676202645
486,halifax,44.6453,-63.5724,0.68,78,8,4.63,CA,1676202354
487,grand island,40.925,-98.342,-1.66,71,0,1.54,US,1676202646
488,hadgaon,19.5,77.6667,30.89,16,90,4.5,IN,1676202400
489,mettmann,51.25,6.9667,10.45,71,75,1.03,DE,1676202647
490,horsham,51.064,-0.3272,8.64,91,75,2.06,GB,1676202648
491,shamary,57.3434,58.2199,-7.51,92,100,3.36,RU,1676202649
492,kachug,53.9606,105.8817,-21.08,99,37,0.68,RU,1676202650
493,belmonte,-15.8631,-38.8828,26.86,79,47,2.83,BR,1676202651
494,krasnogvardeyskiy,57.3793,62.3195,-7.19,93,93,1.85,RU,1676202651
495,larsnes,62.2028,5.5773,9.45,92,100,8.5,NO,1676202652
496,umm kaddadah,13.6017,26.6876,30.57,10,4,7.64,SD,1676202653
497,tezpur,26.6333,92.8,18.36,66,23,3.2,IN,1676202654
498,sekoma,-24.4,23.8833,33.14,21,17,5.21,BW,1676202654
499,leninsk,48.7119,45.1994,-0.36,86,100,7.81,RU,1676202656
500,oktyabrskiy,54.4815,53.471,-8.04,90,100,6.31,RU,1676202657
501,samarai,-10.6167,150.6667,28.16,77,100,1.86,PG,1676202657
502,ishigaki,24.3448,124.1572,22.07,94,20,2.57,JP,1676202483
503,biscarrosse,44.3945,-1.1672,10.97,58,0,2.57,FR,1676202658
504,ustyuzhna,58.8394,36.4321,-5.49,89,19,3.08,RU,1676202659
505,benguela,-12.5763,13.4055,29.41,54,17,5.53,AO,1676202659
506,tigil,57.8,158.6667,-25.3,97,74,1.34,RU,1676202660
507,novopokrovka,49.8425,36.5477,-2.23,77,100,8.05,UA,1676202660
508,verkhnevilyuysk,63.4453,120.3167,-29.83,100,98,1.75,RU,1676202661
509,okha,53.5739,142.9478,-23.9,96,91,2.66,RU,1676202662
510,birjand,32.8663,59.2211,12.26,22,75,11.32,IR,1676202662
511,manokwari,-0.8667,134.0833,25.77,86,88,4.43,ID,1676202663
512,aswan,24.0934,32.907,20.61,32,0,5.14,EG,1676202663
513,velsk,61.0701,42.0983,-7.83,91,84,1.9,RU,1676202664
514,cortez,37.3489,-108.5859,-2.58,74,0,3.09,US,1676202664
515,namibe,-15.1961,12.1522,27.15,57,58,6.16,AO,1676202665
516,gimli,50.6336,-96.9907,-4.99,93,58,3.6,CA,1676202666
517,ugoofaaru,5.6667,73.0,26.93,67,1,3.93,MV,1676202666
518,launceston,-41.45,147.1667,12.8,62,11,3.6,AU,1676202667
519,jiayuguan,39.8167,98.3,-3.75,52,100,3.02,CN,1676202467
520,buxton,53.2574,-1.9098,7.54,78,12,0.89,GB,1676202668
521,tecate,32.5667,-116.6333,6.11,84,81,0.55,MX,1676202669
522,novoselitskoye,44.7508,43.4369,0.58,91,85,2.49,RU,1676202669
523,jacksonville,30.3322,-81.6556,15.03,89,100,5.14,US,1676202670
524,cuiluan,47.72,128.648,-15.97,99,93,2.05,CN,1676202671
525,yaan,7.3833,8.5667,37.32,6,67,4.59,NG,1676202672
526,safaga,26.7292,33.9365,19.64,34,83,10.56,EG,1676202385
527,victor harbor,-35.5667,138.6167,17.22,74,4,0.45,AU,1676202673
528,svetlogorsk,52.6333,29.7333,-1.83,76,24,5.17,BY,1676202673
529,ust-tsilma,65.441,52.1498,-7.62,92,98,3.7,RU,1676202674
530,sao jose da coroa grande,-8.8978,-35.1478,27.65,73,69,3.7,BR,1676202674
531,wattegama,6.7989,81.4808,25.75,71,2,4.22,LK,1676202675
532,izumo,35.3667,132.7667,9.97,87,75,2.57,JP,1676202375
533,aanekoski,62.6946,25.818,-1.85,93,100,4.56,FI,1676202676
534,la rioja,42.25,-2.5,1.88,21,0,2.1,ES,1676202677
535,kankon,15.0167,74.0167,30.89,58,69,1.98,IN,1676202677
536,diamantino,-14.4086,-56.4461,24.73,86,98,1.11,BR,1676202678
537,ust-nera,64.5667,143.2,-32.57,99,99,0.82,RU,1676202678
538,wageningen,51.9667,5.6667,9.5,82,100,2.06,NL,1676202679
539,bonnyville,54.2668,-110.735,-3.11,87,11,4.19,CA,1676202680
540,swan hill,-35.3378,143.5544,20.22,34,0,7.55,AU,1676202680
541,batken,39.8333,71.0,-9.11,69,3,2.18,KG,1676202681
542,bandar-e lengeh,26.5579,54.8807,25.06,33,0,5.14,IR,1676202681
543,yanam,16.7333,82.2167,26.47,64,25,3.52,IN,1676202682
544,valparaiso,-33.0393,-71.6273,21.11,57,0,2.57,CL,1676202683
545,palmer,42.1584,-72.3287,0.23,65,94,1.99,US,1676202684
546,hinton,53.4001,-117.5857,-3.46,90,100,2.88,CA,1676202684
547,petropavlovsk-kamchatskiy,53.0452,158.6483,-15.67,66,0,4.0,RU,1676202685
548,karwar,14.8,74.1333,28.35,59,50,2.41,IN,1676202686
549,linqiong,30.4159,103.4609,11.9,82,100,1.22,CN,1676202686
550,turukhansk,65.8167,87.9833,-13.69,89,96,7.93,RU,1676202687
551,elizabeth city,36.2946,-76.2511,8.34,93,100,10.29,US,1676202687
552,kyra,49.5776,111.9753,-17.06,86,6,2.88,RU,1676202688
553,port moresby,-9.4431,147.1797,25.68,83,75,1.54,PG,1676202439
554,wells,51.2079,-2.649,9.55,75,3,4.5,GB,1676202689
555,muli,2.9167,73.5667,27.07,67,0,6.34,MV,1676202690
556,sao gotardo,-19.3111,-46.0489,23.68,84,82,2.14,BR,1676202690
557,astoria,46.1879,-123.8313,2.53,94,0,2.06,US,1676202691
558,marsa matruh,31.3525,27.2453,15.11,58,40,3.09,EG,1676202691
559,birao,10.2849,22.7882,38.26,10,20,4.81,CF,1676202692
560,kavaratti,10.5669,72.642,27.16,70,23,2.69,IN,1676202692
561,los reyes,19.35,-98.9667,10.51,66,27,0.98,MX,1676202693
562,huarmey,-10.0681,-78.1522,22.43,87,100,1.93,PE,1676202693
563,hoi an,15.8794,108.335,24.98,91,13,4.11,VN,1676202414
564,koslan,63.4564,48.8989,-10.03,96,95,2.07,RU,1676202694
565,lastoursville,-0.8143,12.7287,37.56,33,33,0.48,GA,1676202695
566,seoul,37.5683,126.9778,7.66,63,75,2.57,KR,1676202603
567,komsomolsk,49.0097,33.6455,-0.77,74,64,7.98,UA,1676202696
568,kabul,34.5,69.4167,-4.06,59,0,3.39,AF,1676202458
